$GPGSA,A,3,04,05,,09,12,,,24,,,,,2.5,1.3,2.1*39
$GPGSV,2,1,08,04,48,051,46,05,70,324,45,06,11,265,32,09,43,217,48*7A
$GPGSV,2,2,08,12,26,163,45,16,10,151,00,20,26,311,38,24,77,113,44*7B
$GPGLL,3748.3779,N,12228.3919,W,091027.00,A
$GPGLL,3748.3695,N,12228.3839,W,091029.00,A
$GPGLL,3748.3611,N,12228.3746,W,091031.00,A
$GPGLL,3748.3538,N,12228.3666,W,091033.00,A
$GPGLL,3748.3464,N,12228.3587,W,091035.00,A
$GPGLL,3748.3401,N,12228.352,W,091037.00,A
$GPGLL,3748.3328,N,12228.3414,W,091039.00,A
$GPGLL,3748.3234,N,12228.3335,W,091041.00,A
$GPGLL,3748.315,N,12228.3229,W,091043.00,A
$GPGLL,3748.3087,N,12228.3162,W,091045.00,A
$GPGSA,A,3,04,05,,09,12,,20,24,,,,,4.5,2.4,3.9*30
$GPGSV,2,1,08,04,46,050,41,05,72,324,45,06,12,266,00,09,41,215,45*7C
$GPGSV,2,2,08,12,24,164,38,16,10,150,00,20,28,311,45,24,78,103,45*7E
$GPGLL,3748.3003,N,12228.3096,W,091047.00,A
$GPGLL,3748.293,N,12228.3003,W,091049.00,A
$GPGLL,3748.2867,N,12228.291,W,091051.00,A
$GPGLL,3748.2804,N,12228.2871,W,091053.00,A
$GPGLL,3748.2741,N,12228.2804,W,091055.00,A
$GPGLL,3748.2678,N,12228.2724,W,091057.00,A
$GPGLL,3748.2626,N,12228.2671,W,091059.00,A
$GPGLL,3748.2563,N,12228.2605,W,091101.00,A
$GPGLL,3748.25,N,12228.2539,W,091103.00,A
$GPGLL,3748.2479,N,12228.2459,W,091105.00,A
$GPGSA,A,3,04,05,,09,12,,20,24,,,,,2.5,1.3,2.1*3B
$GPGSV,2,1,08,04,46,050,45,05,72,324,46,06,12,266,00,09,41,215,47*79
$GPGSV,2,2,08,12,24,164,41,16,11,150,43,20,29,311,47,24,77,098,43*7F
$GPGLL,3748.2426,N,12228.2379,W,091107.00,A
$GPGLL,3748.2384,N,12228.2287,W,091109.00,A
$GPGLL,3748.2332,N,12228.2154,W,091111.00,A
$GPGLL,3748.228,N,12228.2101,W,091113.00,A
$GPGLL,3748.2238,N,12228.2021,W,091115.00,A
$GPGLL,3748.2196,N,12228.1929,W,091117.00,A
$GPGLL,3748.2164,N,12228.1836,W,091119.00,A
$GPGLL,3748.2123,N,12228.1716,W,091121.00,A
$GPGLL,3748.2102,N,12228.1623,W,091123.00,A
$GPGLL,3748.2081,N,12228.1557,W,091125.00,A
$GPGSA,A,3,04,05,06,09,12,,20,24,,,,,2.2,1.2,1.8*31
$GPGSV,2,1,08,04,45,050,43,05,73,324,43,06,13,267,41,09,40,214,45*7F
$GPGSV,2,2,08,12,23,164,42,16,11,150,40,20,29,311,45,24,77,098,46*7F
$GPGLL,3748.207,N,12228.145,W,091127.00,A
$GPGLL,3748.2039,N,12228.1345,W,091129.00,A
$GPGLL,3748.2028,N,12228.1265,W,091131.00,A
$GPGLL,3748.1997,N,12228.1172,W,091133.00,A
$GPGLL,3748.1986,N,12228.1105,W,091135.00,A
$GPGLL,3748.1829,N,12228.1053,W,091137.00,A
$GPGLL,3748.1735,N,12228.1026,W,091139.00,A
$GPGLL,3748.1598,N,12228.0986,W,091141.00,A
$GPGLL,3748.1504,N,12228.0946,W,091143.00,A
$GPGLL,3748.143,N,12228.092,W,091145.00,A
$GPGSA,A,3,04,05,,09,12,16,20,24,,,,,2.1,1.2,1.7*3C
$GPGSV,2,1,08,04,45,050,46,05,73,324,44,06,13,267,00,09,40,214,46*7B
$GPGSV,2,2,08,12,23,164,46,16,12,149,43,20,29,311,45,24,77,094,44*7D
$GPGLL,3748.1315,N,12228.092,W,091147.00,A
$GPGLL,3748.1231,N,12228.0933,W,091149.00,A
$GPGLL,3748.1137,N,12228.0933,W,091151.00,A
$GPGLL,3748.1032,N,12228.0933,W,091153.00,A
$GPGLL,3748.0938,N,12228.0933,W,091155.00,A
$GPGLL,3748.0812,N,12228.0946,W,091157.00,A
$GPGLL,3748.0728,N,12228.0973,W,091159.00,A
$GPGLL,3748.0634,N,12228.0973,W,091201.00,A
$GPGLL,3748.0518,N,12228.0973,W,091203.00,A
$GPGLL,3748.0414,N,12228.0986,W,091205.00,A
$GPGSA,A,3,04,05,,09,12,,,24,,,,,2.5,1.3,2.1*39
$GPGSV,2,1,08,04,48,051,46,05,70,324,45,06,11,265,32,09,43,217,48*7A
$GPGSV,2,2,08,12,26,163,45,16,10,151,00,20,26,311,38,24,77,113,44*7B
$GPGLL,3748.0309,N,12228.0986,W,091207.00,A
$GPGLL,3748.0225,N,12228.0986,W,091209.00,A
$GPGLL,3748.0131,N,12228.0973,W,091211.00,A
$GPGLL,3748.0058,N,12228.0973,W,091213.00,A
$GPGLL,3747.9995,N,12228.096,W,091215.00,A
$GPGLL,3747.9921,N,12228.096,W,091217.00,A
$GPGLL,3747.9869,N,12228.0946,W,091219.00,A
$GPGLL,3747.9795,N,12228.096,W,091221.00,A
$GPGLL,3747.9722,N,12228.096,W,091223.00,A
$GPGLL,3747.9648,N,12228.0946,W,091225.00,A
$GPGSA,A,3,04,05,,09,12,,20,24,,,,,4.5,2.4,3.9*30
$GPGSV,2,1,08,04,46,050,41,05,72,324,45,06,12,266,00,09,41,215,45*7C
$GPGSV,2,2,08,12,24,164,38,16,10,150,00,20,28,311,45,24,78,103,45*7E
$GPGLL,3747.9585,N,12228.0946,W,091227.00,A
$GPGLL,3747.9512,N,12228.096,W,091229.00,A
$GPGLL,3747.946,N,12228.0946,W,091231.00,A
$GPGLL,3747.9397,N,12228.0946,W,091233.00,A
$GPGLL,3747.9313,N,12228.0946,W,091235.00,A
$GPGLL,3747.9261,N,12228.0933,W,091237.00,A
$GPGLL,3747.9177,N,12228.0933,W,091239.00,A
$GPGLL,3747.9093,N,12228.0933,W,091241.00,A
$GPGLL,3747.9041,N,12228.0933,W,091243.00,A
$GPGLL,3747.8946,N,12228.092,W,091245.00,A
$GPGSA,A,3,04,05,,09,12,,20,24,,,,,2.5,1.3,2.1*3B
$GPGSV,2,1,08,04,46,050,45,05,72,324,46,06,12,266,00,09,41,215,47*79
$GPGSV,2,2,08,12,24,164,41,16,11,150,43,20,29,311,47,24,77,098,43*7F
$GPGLL,3747.8873,N,12228.092,W,091247.00,A
$GPGLL,3747.8789,N,12228.0933,W,091249.00,A
$GPGLL,3747.8705,N,12228.092,W,091251.00,A
$GPGLL,3747.8621,N,12228.0933,W,091253.00,A
$GPGLL,3747.8537,N,12228.0933,W,091255.00,A
$GPGLL,3747.8443,N,12228.092,W,091257.00,A
$GPGLL,3747.8349,N,12228.0946,W,091259.00,A
$GPGLL,3747.8212,N,12228.0933,W,091301.00,A
$GPGLL,3747.8034,N,12228.092,W,091303.00,A
$GPGLL,3747.7887,N,12228.0907,W,091305.00,A
$GPGSA,A,3,04,05,06,09,12,,20,24,,,,,2.2,1.2,1.8*31
$GPGSV,2,1,08,04,45,050,43,05,73,324,43,06,13,267,41,09,40,214,45*7F
$GPGSV,2,2,08,12,23,164,42,16,11,150,40,20,29,311,45,24,77,098,46*7F
$GPGLL,3747.7782,N,12228.0907,W,091307.00,A
$GPGLL,3747.7677,N,12228.0907,W,091309.00,A
$GPGLL,3747.7562,N,12228.092,W,091311.00,A
$GPGLL,3747.7436,N,12228.0907,W,091313.00,A
$GPGLL,3747.7321,N,12228.0907,W,091315.00,A
$GPGLL,3747.7196,N,12228.0907,W,091317.00,A
$GPGLL,3747.7112,N,12228.0907,W,091319.00,A
$GPGLL,3747.7038,N,12228.092,W,091321.00,A
$GPGLL,3747.6954,N,12228.092,W,091323.00,A
$GPGLL,3747.6818,N,12228.092,W,091325.00,A
$GPGSA,A,3,04,05,,09,12,16,20,24,,,,,2.1,1.2,1.7*3C
$GPGSV,2,1,08,04,45,050,46,05,73,324,44,06,13,267,00,09,40,214,46*7B
$GPGSV,2,2,08,12,23,164,46,16,12,149,43,20,29,311,45,24,77,094,44*7D
$GPGLL,3747.6723,N,12228.0907,W,091327.00,A
$GPGLL,3747.6619,N,12228.0907,W,091329.00,A
$GPGLL,3747.6493,N,12228.092,W,091331.00,A
$GPGLL,3747.6388,N,12228.0933,W,091333.00,A
$GPGLL,3747.6283,N,12228.092,W,091335.00,A
$GPGLL,3747.6189,N,12228.092,W,091337.00,A
$GPGLL,3747.6095,N,12228.092,W,091339.00,A
$GPGLL,3747.6011,N,12228.092,W,091341.00,A
$GPGLL,3747.5916,N,12228.0933,W,091343.00,A
$GPGLL,3747.5801,N,12228.092,W,091345.00,A
$GPGSA,A,3,04,05,,09,12,,,24,,,,,2.5,1.3,2.1*39
$GPGSV,2,1,08,04,48,051,46,05,70,324,45,06,11,265,32,09,43,217,48*7A
$GPGSV,2,2,08,12,26,163,45,16,10,151,00,20,26,311,38,24,77,113,44*7B
$GPGLL,3747.5717,N,12228.092,W,091347.00,A
$GPGLL,3747.5623,N,12228.0933,W,091349.00,A
$GPGLL,3747.5507,N,12228.0973,W,091351.00,A
$GPGLL,3747.5361,N,12228.1013,W,091353.00,A
$GPGLL,3747.5267,N,12228.1053,W,091355.00,A
$GPGLL,3747.5172,N,12228.1079,W,091357.00,A
$GPGLL,3747.5046,N,12228.1105,W,091359.00,A
$GPGLL,3747.4941,N,12228.1132,W,091401.00,A
$GPGLL,3747.4784,N,12228.1198,W,091403.00,A
$GPGLL,3747.47,N,12228.1225,W,091405.00,A
$GPGSA,A,3,04,05,,09,12,,20,24,,,,,4.5,2.4,3.9*30
$GPGSV,2,1,08,04,46,050,41,05,72,324,45,06,12,266,00,09,41,215,45*7C
$GPGSV,2,2,08,12,24,164,38,16,10,150,00,20,28,311,45,24,78,103,45*7E
$GPGLL,3747.4606,N,12228.1265,W,091407.00,A
$GPGLL,3747.4512,N,12228.1345,W,091409.00,A
$GPGLL,3747.4375,N,12228.1371,W,091411.00,A
$GPGLL,3747.4292,N,12228.1464,W,091413.00,A
$GPGLL,3747.4208,N,12228.1543,W,091415.00,A
$GPGLL,3747.4103,N,12228.1597,W,091417.00,A
$GPGLL,3747.3998,N,12228.1689,W,091419.00,A
$GPGLL,3747.3914,N,12228.1743,W,091421.00,A
$GPGLL,3747.3861,N,12228.1782,W,091423.00,A
$GPGLL,3747.3757,N,12228.1862,W,091425.00,A
$GPGSA,A,3,04,05,,09,12,,20,24,,,,,2.5,1.3,2.1*3B
$GPGSV,2,1,08,04,46,050,45,05,72,324,46,06,12,266,00,09,41,215,47*79
$GPGSV,2,2,08,12,24,164,41,16,11,150,43,20,29,311,47,24,77,098,43*7F
$GPGLL,3747.3641,N,12228.1929,W,091427.00,A
$GPGLL,3747.3547,N,12228.1995,W,091429.00,A
$GPGLL,3747.3442,N,12228.2061,W,091431.00,A
$GPGLL,3747.3369,N,12228.2127,W,091433.00,A
$GPGLL,3747.3296,N,12228.2181,W,091435.00,A
$GPGLL,3747.3233,N,12228.2247,W,091437.00,A
$GPGLL,3747.3117,N,12228.2326,W,091439.00,A
$GPGLL,3747.3044,N,12228.2433,W,091441.00,A
$GPGLL,3747.297,N,12228.2472,W,091443.00,A
$GPGLL,3747.2886,N,12228.2499,W,091445.00,A
$GPGSA,A,3,04,05,06,09,12,,20,24,,,,,2.2,1.2,1.8*31
$GPGSV,2,1,08,04,45,050,43,05,73,324,43,06,13,267,41,09,40,214,45*7F
$GPGSV,2,2,08,12,23,164,42,16,11,150,40,20,29,311,45,24,77,098,46*7F
$GPGLL,3747.2813,N,12228.2565,W,091447.00,A
$GPGLL,3747.2729,N,12228.2605,W,091449.00,A
$GPGLL,3747.2677,N,12228.2685,W,091451.00,A
$GPGLL,3747.253,N,12228.2791,W,091453.00,A
$GPGLL,3747.2447,N,12228.2844,W,091455.00,A
$GPGLL,3747.2363,N,12228.2844,W,091457.00,A
$GPGLL,3747.2247,N,12228.283,W,091459.00,A
$GPGLL,3747.2184,N,12228.283,W,091501.00,A
$GPGLL,3747.2111,N,12228.283,W,091503.00,A
$GPGLL,3747.2027,N,12228.2871,W,091505.00,A
$GPGSA,A,3,04,05,,09,12,16,20,24,,,,,2.1,1.2,1.7*3C
$GPGSV,2,1,08,04,45,050,46,05,73,324,44,06,13,267,00,09,40,214,46*7B
$GPGSV,2,2,08,12,23,164,46,16,12,149,43,20,29,311,45,24,77,094,44*7D
$GPGLL,3747.1953,N,12228.2871,W,091507.00,A
$GPGLL,3747.1891,N,12228.291,W,091509.00,A
$GPGLL,3747.1849,N,12228.2817,W,091511.00,A
$GPGLL,3747.1838,N,12228.2737,W,091513.00,A
$GPGLL,3747.1817,N,12228.2632,W,091515.00,A
$GPGLL,3747.1828,N,12228.2512,W,091517.00,A
$GPGLL,3747.1838,N,12228.2379,W,091519.00,A
$GPGLL,3747.1838,N,12228.2273,W,091521.00,A
$GPGLL,3747.1838,N,12228.214,W,091523.00,A
$GPGLL,3747.1838,N,12228.2021,W,091525.00,A
$GPGSA,A,3,04,05,,09,12,,,24,,,,,2.5,1.3,2.1*39
$GPGSV,2,1,08,04,48,051,46,05,70,324,45,06,11,265,32,09,43,217,48*7A
$GPGSV,2,2,08,12,26,163,45,16,10,151,00,20,26,311,38,24,77,113,44*7B
$GPGLL,3747.187,N,12228.1915,W,091527.00,A
$GPGLL,3747.1859,N,12228.1769,W,091529.00,A
$GPGLL,3747.1891,N,12228.161,W,091531.00,A
$GPGLL,3747.1943,N,12228.1411,W,091533.00,A
$GPGLL,3747.1953,N,12228.1331,W,091535.00,A
$GPGLL,3747.1964,N,12228.1212,W,091537.00,A
$GPGLL,3747.1974,N,12228.1039,W,091539.00,A
$GPGLL,3747.1964,N,12228.0907,W,091541.00,A
$GPGLL,3747.1964,N,12228.0801,W,091543.00,A
$GPGLL,3747.1974,N,12228.0694,W,091545.00,A
$GPGSA,A,3,04,05,,09,12,,20,24,,,,,4.5,2.4,3.9*30
$GPGSV,2,1,08,04,46,050,41,05,72,324,45,06,12,266,00,09,41,215,45*7C
$GPGSV,2,2,08,12,24,164,38,16,10,150,00,20,28,311,45,24,78,103,45*7E
$GPGLL,3747.1964,N,12228.0562,W,091547.00,A
$GPGLL,3747.1964,N,12228.0376,W,091549.00,A
$GPGLL,3747.1964,N,12228.0243,W,091551.00,A
$GPGLL,3747.1964,N,12228.0058,W,091553.00,A
$GPGLL,3747.1974,N,12227.9952,W,091555.00,A
$GPGLL,3747.1974,N,12227.9818,W,091557.00,A
$GPGLL,3747.1995,N,12227.9713,W,091559.00,A
$GPGLL,3747.1985,N,12227.9566,W,091601.00,A
$GPGLL,3747.1995,N,12227.9474,W,091603.00,A
$GPGLL,3747.2006,N,12227.9314,W,091605.00,A
$GPGSA,A,3,04,05,,09,12,,20,24,,,,,2.5,1.3,2.1*3B
$GPGSV,2,1,08,04,46,050,45,05,72,324,46,06,12,266,00,09,41,215,47*79
$GPGSV,2,2,08,12,24,164,41,16,11,150,43,20,29,311,47,24,77,098,43*7F
$GPGLL,3747.2027,N,12227.9195,W,091607.00,A
$GPGLL,3747.2016,N,12227.8996,W,091609.00,A
$GPGLL,3747.2027,N,12227.8876,W,091611.00,A
$GPGLL,3747.2016,N,12227.8717,W,091613.00,A
$GPGLL,3747.2027,N,12227.8558,W,091615.00,A
$GPGLL,3747.2027,N,12227.8386,W,091617.00,A
$GPGLL,3747.2016,N,12227.82,W,091619.00,A
$GPGLL,3747.2027,N,12227.8094,W,091621.00,A
$GPGLL,3747.2037,N,12227.7948,W,091623.00,A
$GPGLL,3747.2069,N,12227.7842,W,091625.00,A
$GPGSA,A,3,04,05,06,09,12,,20,24,,,,,2.2,1.2,1.8*31
$GPGSV,2,1,08,04,45,050,43,05,73,324,43,06,13,267,41,09,40,214,45*7F
$GPGSV,2,2,08,12,23,164,42,16,11,150,40,20,29,311,45,24,77,098,46*7F
$GPGLL,3747.21,N,12227.7656,W,091627.00,A
$GPGLL,3747.2121,N,12227.755,W,091629.00,A
$GPGLL,3747.2142,N,12227.743,W,091631.00,A
$GPGLL,3747.2142,N,12227.7311,W,091633.00,A
$GPGLL,3747.2142,N,12227.7165,W,091635.00,A
$GPGLL,3747.2142,N,12227.7006,W,091637.00,A
$GPGLL,3747.2142,N,12227.6847,W,091639.00,A
$GPGLL,3747.2153,N,12227.6714,W,091641.00,A
$GPGLL,3747.2163,N,12227.6541,W,091643.00,A
$GPGLL,3747.2174,N,12227.6436,W,091645.00,A
$GPGSA,A,3,04,05,,09,12,16,20,24,,,,,2.1,1.2,1.7*3C
$GPGSV,2,1,08,04,45,050,46,05,73,324,44,06,13,267,00,09,40,214,46*7B
$GPGSV,2,2,08,12,23,164,46,16,12,149,43,20,29,311,45,24,77,094,44*7D
$GPGLL,3747.2184,N,12227.6329,W,091647.00,A
$GPGLL,3747.2184,N,12227.6183,W,091649.00,A
$GPGLL,3747.2174,N,12227.5931,W,091651.00,A
$GPGLL,3747.2195,N,12227.5825,W,091653.00,A
$GPGLL,3747.2195,N,12227.5746,W,091655.00,A
$GPGLL,3747.2195,N,12227.5507,W,091657.00,A
$GPGLL,3747.2184,N,12227.5281,W,091659.00,A
$GPGLL,3747.2195,N,12227.5095,W,091701.00,A
$GPGLL,3747.2195,N,12227.4949,W,091703.00,A
$GPGLL,3747.2195,N,12227.4883,W,091705.00,A
$GPGSA,A,3,04,05,,09,12,,,24,,,,,2.5,1.3,2.1*39
$GPGSV,2,1,08,04,48,051,46,05,70,324,45,06,11,265,32,09,43,217,48*7A
$GPGSV,2,2,08,12,26,163,45,16,10,151,00,20,26,311,38,24,77,113,44*7B
$GPGLL,3747.2268,N,12227.487,W,091707.00,A
$GPGLL,3747.2321,N,12227.487,W,091709.00,A
$GPGLL,3747.2384,N,12227.4856,W,091711.00,A
$GPGLL,3747.2426,N,12227.4856,W,091713.00,A
$GPGLL,3747.2562,N,12227.487,W,091715.00,A
$GPGLL,3747.2687,N,12227.4883,W,091717.00,A
$GPGLL,3747.2824,N,12227.4923,W,091719.00,A
$GPGLL,3747.2949,N,12227.4949,W,091721.00,A
$GPGLL,3747.3065,N,12227.4963,W,091723.00,A
$GPGLL,3747.3159,N,12227.5002,W,091725.00,A
$GPGSA,A,3,04,05,,09,12,,20,24,,,,,4.5,2.4,3.9*30
$GPGSV,2,1,08,04,46,050,41,05,72,324,45,06,12,266,00,09,41,215,45*7C
$GPGSV,2,2,08,12,24,164,38,16,10,150,00,20,28,311,45,24,78,103,45*7E
$GPGLL,3747.3233,N,12227.5015,W,091727.00,A
$GPGLL,3747.3327,N,12227.5002,W,091729.00,A
$GPGLL,3747.3432,N,12227.5015,W,091731.00,A
$GPGLL,3747.3505,N,12227.5002,W,091733.00,A
$GPGLL,3747.3568,N,12227.5015,W,091735.00,A
$GPGLL,3747.3652,N,12227.5002,W,091737.00,A
$GPGLL,3747.3704,N,12227.5002,W,091739.00,A
$GPGLL,3747.3767,N,12227.5002,W,091741.00,A
$GPGLL,3747.3882,N,12227.4963,W,091743.00,A
$GPGLL,3747.3914,N,12227.4949,W,091745.00,A
$GPGSA,A,3,04,05,,09,12,,20,24,,,,,2.5,1.3,2.1*3B
$GPGSV,2,1,08,04,46,050,45,05,72,324,46,06,12,266,00,09,41,215,47*79
$GPGSV,2,2,08,12,24,164,41,16,11,150,43,20,29,311,47,24,77,098,43*7F
$GPGLL,3747.3945,N,12227.4896,W,091747.00,A
$GPGLL,3747.3977,N,12227.4763,W,091749.00,A
$GPGLL,3747.4019,N,12227.4644,W,091751.00,A
$GPGLL,3747.4082,N,12227.4312,W,091753.00,A
$GPGLL,3747.4113,N,12227.41,W,091755.00,A
$GPGLL,3747.4145,N,12227.3954,W,091757.00,A
$GPGLL,3747.4155,N,12227.3755,W,091759.00,A
$GPGLL,3747.4218,N,12227.3503,W,091801.00,A
$GPGLL,3747.425,N,12227.3251,W,091803.00,A
$GPGLL,3747.4302,N,12227.3038,W,091805.00,A
$GPGSA,A,3,04,05,06,09,12,,20,24,,,,,2.2,1.2,1.8*31
$GPGSV,2,1,08,04,45,050,43,05,73,324,43,06,13,267,41,09,40,214,45*7F
$GPGSV,2,2,08,12,23,164,42,16,11,150,40,20,29,311,45,24,77,098,46*7F
$GPGLL,3747.4334,N,12227.2866,W,091807.00,A
$GPGLL,3747.4344,N,12227.2707,W,091809.00,A
$GPGLL,3747.4375,N,12227.2548,W,091811.00,A
$GPGLL,3747.4396,N,12227.2362,W,091813.00,A
$GPGLL,3747.4417,N,12227.2203,W,091815.00,A
$GPGLL,3747.4459,N,12227.2017,W,091817.00,A
$GPGLL,3747.448,N,12227.1871,W,091819.00,A
$GPGLL,3747.4512,N,12227.1672,W,091821.00,A
$GPGLL,3747.4554,N,12227.1354,W,091823.00,A
$GPGLL,3747.4606,N,12227.1154,W,091825.00,A
$GPGSA,A,3,04,05,,09,12,16,20,24,,,,,2.1,1.2,1.7*3C
$GPGSV,2,1,08,04,45,050,46,05,73,324,44,06,13,267,00,09,40,214,46*7B
$GPGSV,2,2,08,12,23,164,46,16,12,149,43,20,29,311,45,24,77,094,44*7D
$GPGLL,3747.4637,N,12227.0823,W,091827.00,A
$GPGLL,3747.469,N,12227.069,W,091829.00,A
$GPGLL,3747.47,N,12227.0505,W,091831.00,A
$GPGLL,3747.4763,N,12227.0319,W,091833.00,A
$GPGLL,3747.4794,N,12227.0186,W,091835.00,A
$GPGLL,3747.4826,N,12226.9974,W,091837.00,A
$GPGLL,3747.4868,N,12226.9708,W,091839.00,A
$GPGLL,3747.491,N,12226.9443,W,091841.00,A
$GPGLL,3747.492,N,12226.9191,W,091843.00,A
$GPGLL,3747.4941,N,12226.8952,W,091845.00,A
$GPGSA,A,3,04,05,,09,12,,,24,,,,,2.5,1.3,2.1*39
$GPGSV,2,1,08,04,48,051,46,05,70,324,45,06,11,265,32,09,43,217,48*7A
$GPGSV,2,2,08,12,26,163,45,16,10,151,00,20,26,311,38,24,77,113,44*7B
$GPGLL,3747.4962,N,12226.8766,W,091847.00,A
$GPGLL,3747.5046,N,12226.87,W,091849.00,A
$GPGLL,3747.513,N,12226.8567,W,091851.00,A
$GPGLL,3747.5235,N,12226.8461,W,091853.00,A
$GPGLL,3747.5309,N,12226.8382,W,091855.00,A
$GPGLL,3747.5403,N,12226.8342,W,091857.00,A
$GPGLL,3747.5466,N,12226.8302,W,091859.00,A
$GPGLL,3747.5539,N,12226.8276,W,091901.00,A
$GPGLL,3747.5612,N,12226.8249,W,091903.00,A
$GPGLL,3747.5665,N,12226.8183,W,091905.00,A
$GPGSA,A,3,04,05,,09,12,,20,24,,,,,4.5,2.4,3.9*30
$GPGSV,2,1,08,04,46,050,41,05,72,324,45,06,12,266,00,09,41,215,45*7C
$GPGSV,2,2,08,12,24,164,38,16,10,150,00,20,28,311,45,24,78,103,45*7E
$GPGLL,3747.5717,N,12226.8103,W,091907.00,A
$GPGLL,3747.5811,N,12226.8116,W,091909.00,A
$GPGLL,3747.5937,N,12226.8209,W,091911.00,A
$GPGLL,3747.599,N,12226.8262,W,091913.00,A
$GPGLL,3747.6137,N,12226.8342,W,091915.00,A
$GPGLL,3747.6336,N,12226.8342,W,091917.00,A
$GPGLL,3747.6451,N,12226.8395,W,091919.00,A
$GPGLL,3747.6545,N,12226.8421,W,091921.00,A
$GPGLL,3747.6629,N,12226.8435,W,091923.00,A
$GPGLL,3747.6702,N,12226.8461,W,091925.00,A
$GPGSA,A,3,04,05,,09,12,,20,24,,,,,2.5,1.3,2.1*3B
$GPGSV,2,1,08,04,46,050,45,05,72,324,46,06,12,266,00,09,41,215,47*79
$GPGSV,2,2,08,12,24,164,41,16,11,150,43,20,29,311,47,24,77,098,43*7F
$GPGLL,3747.6786,N,12226.8474,W,091927.00,A
$GPGLL,3747.6849,N,12226.8474,W,091929.00,A
$GPGLL,3747.6923,N,12226.8501,W,091931.00,A
$GPGLL,3747.6954,N,12226.8528,W,091933.00,A
$GPGLL,3747.7017,N,12226.8687,W,091935.00,A
$GPGLL,3747.7133,N,12226.8899,W,091937.00,A
$GPGLL,3747.7206,N,12226.9085,W,091939.00,A
$GPGLL,3747.7332,N,12226.927,W,091941.00,A
$GPGLL,3747.7405,N,12226.9403,W,091943.00,A
$GPGLL,3747.7457,N,12226.9522,W,091945.00,A
$GPGSA,A,3,04,05,06,09,12,,20,24,,,,,2.2,1.2,1.8*31
$GPGSV,2,1,08,04,45,050,43,05,73,324,43,06,13,267,41,09,40,214,45*7F
$GPGSV,2,2,08,12,23,164,42,16,11,150,40,20,29,311,45,24,77,098,46*7F
$GPGLL,3747.7573,N,12226.9828,W,091947.00,A
$GPGLL,3747.7625,N,12226.9934,W,091949.00,A
$GPGLL,3747.7646,N,12227.0027,W,091951.00,A
$GPGLL,3747.7604,N,12227.012,W,091953.00,A
$GPGLL,3747.7604,N,12227.016,W,091955.00,A
$GPGLL,3747.7688,N,12227.0186,W,091957.00,A
$GPGLL,3747.7751,N,12227.0239,W,091959.00,A
$GPGLL,3747.7824,N,12227.0292,W,092001.00,A
$GPGLL,3747.7908,N,12227.0253,W,092003.00,A
$GPGLL,3747.7982,N,12227.0239,W,092005.00,A
$GPGSA,A,3,04,05,,09,12,16,20,24,,,,,2.1,1.2,1.7*3C
$GPGSV,2,1,08,04,45,050,46,05,73,324,44,06,13,267,00,09,40,214,46*7B
$GPGSV,2,2,08,12,23,164,46,16,12,149,43,20,29,311,45,24,77,094,44*7D
$GPGLL,3747.8076,N,12227.0186,W,092007.00,A
$GPGLL,3747.816,N,12227.0133,W,092009.00,A
$GPGLL,3747.8286,N,12227.008,W,092011.00,A
$GPGLL,3747.8359,N,12227.004,W,092013.00,A
$GPGLL,3747.8464,N,12227.004,W,092015.00,A
$GPGLL,3747.8495,N,12227.0027,W,092017.00,A
$GPGLL,3747.8527,N,12226.9894,W,092019.00,A
$GPGLL,3747.8558,N,12226.9722,W,092021.00,A
$GPGLL,3747.8568,N,12226.9549,W,092023.00,A
$GPGLL,3747.8579,N,12226.939,W,092025.00,A
$GPGSA,A,3,04,05,,09,12,,,24,,,,,2.5,1.3,2.1*39
$GPGSV,2,1,08,04,48,051,46,05,70,324,45,06,11,265,32,09,43,217,48*7A
$GPGSV,2,2,08,12,26,163,45,16,10,151,00,20,26,311,38,24,77,113,44*7B
$GPGLL,3747.86,N,12226.9257,W,092027.00,A
$GPGLL,3747.8642,N,12226.9098,W,092029.00,A
$GPGLL,3747.8694,N,12226.8966,W,092031.00,A
$GPGLL,3747.8715,N,12226.8859,W,092033.00,A
$GPGLL,3747.8768,N,12226.8727,W,092035.00,A
$GPGLL,3747.8799,N,12226.8594,W,092037.00,A
$GPGLL,3747.8852,N,12226.8528,W,092039.00,A
$GPGLL,3747.8904,N,12226.8461,W,092041.00,A
$GPGLL,3747.8957,N,12226.8382,W,092043.00,A
$GPGLL,3747.8999,N,12226.8355,W,092045.00,A
$GPGSA,A,3,04,05,,09,12,,20,24,,,,,4.5,2.4,3.9*30
$GPGSV,2,1,08,04,46,050,41,05,72,324,45,06,12,266,00,09,41,215,45*7C
$GPGSV,2,2,08,12,24,164,38,16,10,150,00,20,28,311,45,24,78,103,45*7E
$GPGLL,3747.902,N,12226.8235,W,092047.00,A
$GPGLL,3747.9072,N,12226.809,W,092049.00,A
$GPGLL,3747.9083,N,12226.7983,W,092051.00,A
$GPGLL,3747.9124,N,12226.7851,W,092053.00,A
$GPGLL,3747.9145,N,12226.7705,W,092055.00,A
$GPGLL,3747.9428,N,12226.7731,W,092057.00,A
$GPGLL,3747.9512,N,12226.7745,W,092059.00,A
$GPGLL,3747.9659,N,12226.7771,W,092101.00,A
$GPGLL,3747.9711,N,12226.7771,W,092103.00,A
$GPGLL,3747.9722,N,12226.7665,W,092105.00,A
$GPGSA,A,3,04,05,,09,12,,20,24,,,,,2.5,1.3,2.1*3B
$GPGSV,2,1,08,04,46,050,45,05,72,324,46,06,12,266,00,09,41,215,47*79
$GPGSV,2,2,08,12,24,164,41,16,11,150,43,20,29,311,47,24,77,098,43*7F
$GPGLL,3747.9732,N,12226.7506,W,092107.00,A
$GPGLL,3747.9774,N,12226.732,W,092109.00,A
$GPGLL,3747.9774,N,12226.7174,W,092111.00,A
$GPGLL,3747.9785,N,12226.6948,W,092113.00,A
$GPGLL,3747.9816,N,12226.6856,W,092115.00,A
$GPGLL,3747.9827,N,12226.6644,W,092117.00,A
$GPGLL,3747.9869,N,12226.6458,W,092119.00,A
$GPGLL,3747.9879,N,12226.6179,W,092121.00,A
$GPGLL,3747.9911,N,12226.594,W,092123.00,A
$GPGLL,3747.9932,N,12226.5715,W,092125.00,A
$GPGSA,A,3,04,05,06,09,12,,20,24,,,,,2.2,1.2,1.8*31
$GPGSV,2,1,08,04,45,050,43,05,73,324,43,06,13,267,41,09,40,214,45*7F
$GPGSV,2,2,08,12,23,164,42,16,11,150,40,20,29,311,45,24,77,098,46*7F
$GPGLL,3747.9942,N,12226.5595,W,092127.00,A
$GPGLL,3747.9963,N,12226.533,W,092129.00,A
$GPGLL,3747.9995,N,12226.5224,W,092131.00,A
$GPGLL,3748.0037,N,12226.5038,W,092133.00,A
$GPGLL,3748.0047,N,12226.4866,W,092135.00,A
$GPGLL,3748.0068,N,12226.468,W,092137.00,A
$GPGLL,3748.011,N,12226.456,W,092139.00,A
$GPGLL,3748.0152,N,12226.4388,W,092141.00,A
$GPGLL,3748.0152,N,12226.4149,W,092143.00,A
$GPGLL,3748.0173,N,12226.3963,W,092145.00,A
$GPGSA,A,3,04,05,,09,12,16,20,24,,,,,2.1,1.2,1.7*3C
$GPGSV,2,1,08,04,45,050,46,05,73,324,44,06,13,267,00,09,40,214,46*7B
$GPGSV,2,2,08,12,23,164,46,16,12,149,43,20,29,311,45,24,77,094,44*7D
$GPGLL,3748.0194,N,12226.3831,W,092147.00,A
$GPGLL,3748.0225,N,12226.3658,W,092149.00,A
$GPGLL,3748.0236,N,12226.3552,W,092151.00,A
$GPGLL,3748.0256,N,12226.334,W,092153.00,A
$GPGLL,3748.0298,N,12226.3048,W,092155.00,A
$GPGLL,3748.0298,N,12226.2981,W,092157.00,A
$GPGLL,3748.0309,N,12226.2742,W,092159.00,A
$GPGLL,3748.0319,N,12226.2557,W,092201.00,A
$GPGLL,3748.0319,N,12226.2477,W,092203.00,A
$GPGLL,3748.033,N,12226.2212,W,092205.00,A
$GPGSA,A,3,04,05,,09,12,,,24,,,,,2.5,1.3,2.1*39
$GPGSV,2,1,08,04,48,051,46,05,70,324,45,06,11,265,32,09,43,217,48*7A
$GPGSV,2,2,08,12,26,163,45,16,10,151,00,20,26,311,38,24,77,113,44*7B
$GPGLL,3748.033,N,12226.2172,W,092207.00,A
$GPGLL,3748.034,N,12226.2106,W,092209.00,A
$GPGLL,3748.0309,N,12226.2053,W,092211.00,A
$GPGLL,3748.0236,N,12226.2013,W,092213.00,A
$GPGLL,3748.011,N,12226.196,W,092215.00,A
$GPGLL,3747.9963,N,12226.1907,W,092217.00,A
$GPGLL,3747.9848,N,12226.1893,W,092219.00,A
$GPGLL,3747.9701,N,12226.1893,W,092221.00,A
$GPGLL,3747.9701,N,12226.1986,W,092223.00,A
$GPGLL,3747.9659,N,12226.2106,W,092225.00,A
$GPGSA,A,3,04,05,,09,12,,20,24,,,,,4.5,2.4,3.9*30
$GPGSV,2,1,08,04,46,050,41,05,72,324,45,06,12,266,00,09,41,215,45*7C
$GPGSV,2,2,08,12,24,164,38,16,10,150,00,20,28,311,45,24,78,103,45*7E
$GPGLL,3747.9669,N,12226.2159,W,092227.00,A
$GPGLL,3747.9617,N,12226.2305,W,092229.00,A
