$GPGSA,A,3,04,05,,09,12,,,24,,,,,2.5,1.3,2.1*39
$GPGSV,2,1,08,04,48,051,46,05,70,324,45,06,11,265,32,09,43,217,48*7A
$GPGSV,2,2,08,12,26,163,45,16,10,151,00,20,26,311,38,24,77,113,44*7B
$GPGLL,3854.8051,N,07701.09314,W,091027.00,A
$GPGLL,3854.7998,N,07701.10442,W,091029.00,A
$GPGLL,3854.7954,N,07701.11798,W,091031.00,A
$GPGLL,3854.7909,N,07701.13154,W,091033.00,A
$GPGLL,3854.7838,N,07701.1553,W,091035.00,A
$GPGLL,3854.7776,N,07701.1688,W,091037.00,A
$GPGLL,3854.7723,N,07701.18128,W,091039.00,A
$GPGLL,3854.7678,N,07701.19706,W,091041.00,A
$GPGLL,3854.7634,N,07701.20612,W,091043.00,A
$GPGLL,3854.7589,N,07701.2174,W,091045.00,A
$GPGSA,A,3,04,05,,09,12,,20,24,,,,,4.5,2.4,3.9*30
$GPGSV,2,1,08,04,46,050,41,05,72,324,45,06,12,266,00,09,41,215,45*7C
$GPGSV,2,2,08,12,24,164,38,16,10,150,00,20,28,311,45,24,78,103,45*7E
$GPGLL,3854.7554,N,07701.2276,W,091047.00,A
$GPGLL,3854.7492,N,07701.24566,W,091049.00,A
$GPGLL,3854.7447,N,07701.25694,W,091051.00,A
$GPGLL,3854.7403,N,07701.27164,W,091053.00,A
$GPGLL,3854.7349,N,07701.28298,W,091055.00,A
$GPGLL,3854.7305,N,07701.30104,W,091057.00,A
$GPGLL,3854.7261,N,07701.3146,W,091059.00,A
$GPGLL,3854.7207,N,07701.32366,W,091101.00,A
$GPGLL,3854.7163,N,07701.34172,W,091103.00,A
$GPGLL,3854.7118,N,07701.34622,W,091105.00,A
$GPGSA,A,3,04,05,,09,12,,20,24,,,,,2.5,1.3,2.1*3B
$GPGSV,2,1,08,04,46,050,45,05,72,324,46,06,12,266,00,09,41,215,47*79
$GPGSV,2,2,08,12,24,164,41,16,11,150,43,20,29,311,47,24,77,098,43*7F
$GPGLL,3854.7065,N,07701.35528,W,091107.00,A
$GPGLL,3854.703,N,07701.37562,W,091109.00,A
$GPGLL,3854.6985,N,07701.38354,W,091111.00,A
$GPGLL,3854.695,N,07701.39938,W,091113.00,A
$GPGLL,3854.6923,N,07701.4073,W,091115.00,A
$GPGLL,3854.687,N,07701.41972,W,091117.00,A
$GPGLL,3854.6835,N,07701.42758,W,091119.00,A
$GPGLL,3854.6799,N,07701.44342,W,091121.00,A
$GPGLL,3854.6763,N,07701.45134,W,091123.00,A
$GPGLL,3854.6719,N,07701.46604,W,091125.00,A
$GPGSA,A,3,04,05,06,09,12,,20,24,,,,,2.2,1.2,1.8*31
$GPGSV,2,1,08,04,45,050,43,05,73,324,43,06,13,267,41,09,40,214,45*7F
$GPGSV,2,2,08,12,23,164,42,16,11,150,40,20,29,311,45,24,77,098,46*7F
$GPGLL,3854.6674,N,07701.47618,W,091127.00,A
$GPGLL,3854.663,N,07701.49202,W,091129.00,A
$GPGLL,3854.6586,N,07701.49766,W,091131.00,A
$GPGLL,3854.655,N,07701.509,W,091133.00,A
$GPGLL,3854.6497,N,07701.52028,W,091135.00,A
$GPGLL,3854.6461,N,07701.53834,W,091137.00,A
$GPGLL,3854.6417,N,07701.54626,W,091139.00,A
$GPGLL,3854.6382,N,07701.55646,W,091141.00,A
$GPGLL,3854.6346,N,07701.5666,W,091143.00,A
$GPGLL,3854.6319,N,07701.57452,W,091145.00,A
$GPGSA,A,3,04,05,,09,12,16,20,24,,,,,2.1,1.2,1.7*3C
$GPGSV,2,1,08,04,45,050,46,05,73,324,44,06,13,267,00,09,40,214,46*7B
$GPGSV,2,2,08,12,23,164,46,16,12,149,43,20,29,311,45,24,77,094,44*7D
$GPGLL,3854.6275,N,07701.58922,W,091147.00,A
$GPGLL,3854.6195,N,07701.61406,W,091149.00,A
$GPGLL,3854.6169,N,07701.62312,W,091151.00,A
$GPGLL,3854.6124,N,07701.63326,W,091153.00,A
$GPGLL,3854.6071,N,07701.65252,W,091155.00,A
$GPGLL,3854.6035,N,07701.66722,W,091157.00,A
$GPGLL,3854.5991,N,07701.68078,W,091159.00,A
$GPGLL,3854.592,N,07701.69434,W,091201.00,A
$GPGLL,3854.5867,N,07701.70334,W,091203.00,A
$GPGLL,3854.5813,N,07701.71804,W,091205.00,A
$GPGSA,A,3,04,05,,09,12,,,24,,,,,2.5,1.3,2.1*39
$GPGSV,2,1,08,04,48,051,46,05,70,324,45,06,11,265,32,09,43,217,48*7A
$GPGSV,2,2,08,12,26,163,45,16,10,151,00,20,26,311,38,24,77,113,44*7B
$GPGLL,3854.5778,N,07701.73274,W,091207.00,A
$GPGLL,3854.5813,N,07701.7418,W,091209.00,A
$GPGLL,3854.5849,N,07701.74864,W,091211.00,A
$GPGLL,3854.5885,N,07701.75092,W,091213.00,A
$GPGLL,3854.5929,N,07701.75884,W,091215.00,A
$GPGLL,3854.5974,N,07701.76676,W,091217.00,A
$GPGLL,3854.601,N,07701.78152,W,091219.00,A
$GPGLL,3854.601,N,07701.79166,W,091221.00,A
$GPGLL,3854.5965,N,07701.80186,W,091223.00,A
$GPGLL,3854.593,N,07701.812,W,091225.00,A
$GPGSA,A,3,04,05,,09,12,,20,24,,,,,4.5,2.4,3.9*30
$GPGSV,2,1,08,04,46,050,41,05,72,324,45,06,12,266,00,09,41,215,45*7C
$GPGSV,2,2,08,12,24,164,38,16,10,150,00,20,28,311,45,24,78,103,45*7E
$GPGLL,3854.5885,N,07701.81992,W,091227.00,A
$GPGLL,3854.5814,N,07701.82328,W,091229.00,A
$GPGLL,3854.5734,N,07701.83006,W,091231.00,A
$GPGLL,3854.5627,N,07701.83228,W,091233.00,A
$GPGLL,3854.553,N,07701.82994,W,091235.00,A
$GPGLL,3854.544,N,07701.82994,W,091237.00,A
$GPGLL,3854.5396,N,07701.83894,W,091239.00,A
$GPGLL,3854.5351,N,07701.84914,W,091241.00,A
$GPGLL,3854.5316,N,07701.86612,W,091243.00,A
$GPGLL,3854.5281,N,07701.87398,W,091245.00,A
$GPGSA,A,3,04,05,,09,12,,20,24,,,,,2.5,1.3,2.1*3B
$GPGSV,2,1,08,04,46,050,45,05,72,324,46,06,12,266,00,09,41,215,47*79
$GPGSV,2,2,08,12,24,164,41,16,11,150,43,20,29,311,47,24,77,098,43*7F
$GPGLL,3854.5218,N,07701.8921,W,091247.00,A
$GPGLL,3854.5156,N,07701.90674,W,091249.00,A
$GPGLL,3854.5129,N,07701.91922,W,091251.00,A
$GPGLL,3854.5068,N,07701.92822,W,091253.00,A
$GPGLL,3854.5041,N,07701.94292,W,091255.00,A
$GPGLL,3854.5005,N,07701.9554,W,091257.00,A
$GPGLL,3854.4943,N,07701.9689,W,091259.00,A
$GPGLL,3854.4925,N,07701.9746,W,091301.00,A
$GPGLL,3854.4863,N,07701.9836,W,091303.00,A
$GPGLL,3854.4846,N,07701.99716,W,091305.00,A
$GPGSA,A,3,04,05,06,09,12,,20,24,,,,,2.2,1.2,1.8*31
$GPGSV,2,1,08,04,45,050,43,05,73,324,43,06,13,267,41,09,40,214,45*7F
$GPGSV,2,2,08,12,23,164,42,16,11,150,40,20,29,311,45,24,77,098,46*7F
$GPGLL,3854.4792,N,07702.0085,W,091307.00,A
$GPGLL,3854.4783,N,07702.01978,W,091309.00,A
$GPGLL,3854.4748,N,07702.02884,W,091311.00,A
$GPGLL,3854.4712,N,07702.03898,W,091313.00,A
$GPGLL,3854.4641,N,07702.05596,W,091315.00,A
$GPGLL,3854.4597,N,07702.07288,W,091317.00,A
$GPGLL,3854.4544,N,07702.08194,W,091319.00,A
$GPGLL,3854.4535,N,07702.091,W,091321.00,A
$GPGLL,3854.4472,N,07702.09778,W,091323.00,A
$GPGLL,3854.4419,N,07702.10906,W,091325.00,A
$GPGSA,A,3,04,05,,09,12,16,20,24,,,,,2.1,1.2,1.7*3C
$GPGSV,2,1,08,04,45,050,46,05,73,324,44,06,13,267,00,09,40,214,46*7B
$GPGSV,2,2,08,12,23,164,46,16,12,149,43,20,29,311,45,24,77,094,44*7D
$GPGLL,3854.4384,N,07702.11806,W,091327.00,A
$GPGLL,3854.4348,N,07702.13618,W,091329.00,A
$GPGLL,3854.4322,N,07702.14974,W,091331.00,A
$GPGLL,3854.4313,N,07702.1588,W,091333.00,A
$GPGLL,3854.4313,N,07702.1735,W,091335.00,A
$GPGLL,3854.4295,N,07702.18028,W,091337.00,A
$GPGLL,3854.4277,N,07702.19048,W,091339.00,A
$GPGLL,3854.4259,N,07702.19954,W,091341.00,A
$GPGLL,3854.4207,N,07702.20968,W,091343.00,A
$GPGLL,3854.4171,N,07702.21532,W,091345.00,A
$GPGSA,A,3,04,05,,09,12,,,24,,,,,2.5,1.3,2.1*39
$GPGSV,2,1,08,04,48,051,46,05,70,324,45,06,11,265,32,09,43,217,48*7A
$GPGSV,2,2,08,12,26,163,45,16,10,151,00,20,26,311,38,24,77,113,44*7B
$GPGLL,3854.4144,N,07702.2221,W,091347.00,A
$GPGLL,3854.41,N,07702.23116,W,091349.00,A
$GPGLL,3854.4037,N,07702.24016,W,091351.00,A
$GPGLL,3854.3993,N,07702.24694,W,091353.00,A
$GPGLL,3854.3931,N,07702.25594,W,091355.00,A
$GPGLL,3854.3886,N,07702.265,W,091357.00,A
$GPGLL,3854.3851,N,07702.27742,W,091359.00,A
$GPGLL,3854.3806,N,07702.2989,W,091401.00,A
$GPGLL,3854.3753,N,07702.31138,W,091403.00,A
$GPGLL,3854.3709,N,07702.3181,W,091405.00,A
$GPGSA,A,3,04,05,,09,12,,20,24,,,,,4.5,2.4,3.9*30
$GPGSV,2,1,08,04,46,050,41,05,72,324,45,06,12,266,00,09,41,215,45*7C
$GPGSV,2,2,08,12,24,164,38,16,10,150,00,20,28,311,45,24,78,103,45*7E
$GPGLL,3854.3673,N,07702.32944,W,091407.00,A
$GPGLL,3854.3638,N,07702.34528,W,091409.00,A
$GPGLL,3854.3602,N,07702.3577,W,091411.00,A
$GPGLL,3854.3567,N,07702.37126,W,091413.00,A
$GPGLL,3854.3532,N,07702.3814,W,091415.00,A
$GPGLL,3854.3487,N,07702.3961,W,091417.00,A
$GPGLL,3854.3425,N,07702.40402,W,091419.00,A
$GPGLL,3854.3371,N,07702.41986,W,091421.00,A
$GPGLL,3854.3327,N,07702.43678,W,091423.00,A
$GPGLL,3854.3274,N,07702.44812,W,091425.00,A
$GPGSA,A,3,04,05,,09,12,,20,24,,,,,2.5,1.3,2.1*3B
$GPGSV,2,1,08,04,46,050,45,05,72,324,46,06,12,266,00,09,41,215,47*79
$GPGSV,2,2,08,12,24,164,41,16,11,150,43,20,29,311,47,24,77,098,43*7F
$GPGLL,3854.3203,N,07702.46054,W,091427.00,A
$GPGLL,3854.3194,N,07702.47296,W,091429.00,A
$GPGLL,3854.3212,N,07702.48544,W,091431.00,A
$GPGLL,3854.3194,N,07702.50464,W,091433.00,A
$GPGLL,3854.3203,N,07702.51712,W,091435.00,A
$GPGLL,3854.3194,N,07702.52618,W,091437.00,A
$GPGLL,3854.3194,N,07702.53974,W,091439.00,A
$GPGLL,3854.3194,N,07702.5488,W,091441.00,A
$GPGLL,3854.3203,N,07702.56122,W,091443.00,A
$GPGLL,3854.3203,N,07702.5737,W,091445.00,A
$GPGSA,A,3,04,05,06,09,12,,20,24,,,,,2.2,1.2,1.8*31
$GPGSV,2,1,08,04,45,050,43,05,73,324,43,06,13,267,41,09,40,214,45*7F
$GPGSV,2,2,08,12,23,164,42,16,11,150,40,20,29,311,45,24,77,098,46*7F
$GPGLL,3854.3212,N,07702.59296,W,091447.00,A
$GPGLL,3854.3212,N,07702.60538,W,091449.00,A
$GPGLL,3854.3212,N,07702.61558,W,091451.00,A
$GPGLL,3854.3213,N,07702.628,W,091453.00,A
$GPGLL,3854.3213,N,07702.63934,W,091455.00,A
$GPGLL,3854.3213,N,07702.65746,W,091457.00,A
$GPGLL,3854.3213,N,07702.67444,W,091459.00,A
$GPGLL,3854.3213,N,07702.69028,W,091501.00,A
$GPGLL,3854.3213,N,07702.6982,W,091503.00,A
$GPGLL,3854.3213,N,07702.71176,W,091505.00,A
$GPGSA,A,3,04,05,,09,12,16,20,24,,,,,2.1,1.2,1.7*3C
$GPGSV,2,1,08,04,45,050,46,05,73,324,44,06,13,267,00,09,40,214,46*7B
$GPGSV,2,2,08,12,23,164,46,16,12,149,43,20,29,311,45,24,77,094,44*7D
$GPGLL,3854.3214,N,07702.71854,W,091507.00,A
$GPGLL,3854.3214,N,07702.7333,W,091509.00,A
$GPGLL,3854.3223,N,07702.7423,W,091511.00,A
$GPGLL,3854.3232,N,07702.74914,W,091513.00,A
$GPGLL,3854.3223,N,07702.76834,W,091515.00,A
$GPGLL,3854.3232,N,07702.7774,W,091517.00,A
$GPGLL,3854.3223,N,07702.7876,W,091519.00,A
$GPGLL,3854.3223,N,07702.79324,W,091521.00,A
$GPGLL,3854.3196,N,07702.80002,W,091523.00,A
$GPGLL,3854.3152,N,07702.81136,W,091525.00,A
$GPGSA,A,3,04,05,,09,12,,,24,,,,,2.5,1.3,2.1*39
$GPGSV,2,1,08,04,48,051,46,05,70,324,45,06,11,265,32,09,43,217,48*7A
$GPGSV,2,2,08,12,26,163,45,16,10,151,00,20,26,311,38,24,77,113,44*7B
$GPGLL,3854.3107,N,07702.82036,W,091527.00,A
$GPGLL,3854.3071,N,07702.82714,W,091529.00,A
$GPGLL,3854.3063,N,07702.83734,W,091531.00,A
$GPGLL,3854.3063,N,07702.8407,W,091533.00,A
$GPGLL,3854.3063,N,07702.8407,W,091535.00,A
$GPGLL,3854.3063,N,07702.8407,W,091537.00,A
$GPGLL,3854.3063,N,07702.8407,W,091539.00,A
$GPGLL,3854.3036,N,07702.84184,W,091541.00,A
$GPGLL,3854.3001,N,07702.84862,W,091543.00,A
$GPGLL,3854.2921,N,07702.85648,W,091545.00,A
$GPGSA,A,3,04,05,,09,12,,20,24,,,,,4.5,2.4,3.9*30
$GPGSV,2,1,08,04,46,050,41,05,72,324,45,06,12,266,00,09,41,215,45*7C
$GPGSV,2,2,08,12,24,164,38,16,10,150,00,20,28,311,45,24,78,103,45*7E
$GPGLL,3854.2823,N,07702.87118,W,091547.00,A
$GPGLL,3854.2761,N,07702.87796,W,091549.00,A
$GPGLL,3854.2636,N,07702.88582,W,091551.00,A
$GPGLL,3854.2592,N,07702.8926,W,091553.00,A
$GPGLL,3854.2494,N,07702.90274,W,091555.00,A
$GPGLL,3854.2449,N,07702.90838,W,091557.00,A
$GPGLL,3854.2387,N,07702.91516,W,091559.00,A
$GPGLL,3854.2325,N,07702.92188,W,091601.00,A
$GPGLL,3854.2183,N,07702.92866,W,091603.00,A
$GPGLL,3854.2111,N,07702.93652,W,091605.00,A
$GPGSA,A,3,04,05,,09,12,,20,24,,,,,2.5,1.3,2.1*3B
$GPGSV,2,1,08,04,46,050,45,05,72,324,46,06,12,266,00,09,41,215,47*79
$GPGSV,2,2,08,12,24,164,41,16,11,150,43,20,29,311,47,24,77,098,43*7F
$GPGLL,3854.2067,N,07702.94102,W,091607.00,A
$GPGLL,3854.1996,N,07702.9478,W,091609.00,A
$GPGLL,3854.1934,N,07702.95794,W,091611.00,A
$GPGLL,3854.1871,N,07702.96472,W,091613.00,A
$GPGLL,3854.1774,N,07702.97372,W,091615.00,A
$GPGLL,3854.172,N,07702.98164,W,091617.00,A
$GPGLL,3854.164,N,07702.99292,W,091619.00,A
$GPGLL,3854.1649,N,07703.00198,W,091621.00,A
$GPGLL,3854.1623,N,07703.01782,W,091623.00,A
$GPGLL,3854.1561,N,07703.03138,W,091625.00,A
$GPGSA,A,3,04,05,06,09,12,,20,24,,,,,2.2,1.2,1.8*31
$GPGSV,2,1,08,04,45,050,43,05,73,324,43,06,13,267,41,09,40,214,45*7F
$GPGSV,2,2,08,12,23,164,42,16,11,150,40,20,29,311,45,24,77,098,46*7F
$GPGLL,3854.1498,N,07703.04152,W,091627.00,A
$GPGLL,3854.1365,N,07703.04824,W,091629.00,A
$GPGLL,3854.1232,N,07703.04818,W,091631.00,A
$GPGLL,3854.1178,N,07703.04368,W,091633.00,A
$GPGLL,3854.1107,N,07703.0402,W,091635.00,A
$GPGLL,3854.1072,N,07703.03456,W,091637.00,A
$GPGLL,3854.1045,N,07703.02778,W,091639.00,A
$GPGLL,3854.1009,N,07703.01644,W,091641.00,A
$GPGLL,3854.0991,N,07703.01188,W,091643.00,A
$GPGLL,3854.0956,N,07703.00168,W,091645.00,A
$GPGSA,A,3,04,05,,09,12,16,20,24,,,,,2.1,1.2,1.7*3C
$GPGSV,2,1,08,04,45,050,46,05,73,324,44,06,13,267,00,09,40,214,46*7B
$GPGSV,2,2,08,12,23,164,46,16,12,149,43,20,29,311,45,24,77,094,44*7D
$GPGLL,3854.1,N,07702.99376,W,091647.00,A
$GPGLL,3854.1027,N,07702.98926,W,091649.00,A
$GPGLL,3854.1071,N,07702.98248,W,091651.00,A
$GPGLL,3854.1089,N,07702.97684,W,091653.00,A
$GPGLL,3854.1071,N,07702.96436,W,091655.00,A
$GPGLL,3854.1027,N,07702.94288,W,091657.00,A
$GPGLL,3854.0982,N,07702.92584,W,091659.00,A
$GPGLL,3854.0919,N,07702.9145,W,091701.00,A
$GPGLL,3854.0901,N,07702.89752,W,091703.00,A
$GPGLL,3854.0875,N,07702.8851,W,091705.00,A
$GPGSA,A,3,04,05,,09,12,,,24,,,,,2.5,1.3,2.1*39
$GPGSV,2,1,08,04,48,051,46,05,70,324,45,06,11,265,32,09,43,217,48*7A
$GPGSV,2,2,08,12,26,163,45,16,10,151,00,20,26,311,38,24,77,113,44*7B
$GPGLL,3854.0848,N,07702.87376,W,091707.00,A
$GPGLL,3854.0785,N,07702.859,W,091709.00,A
$GPGLL,3854.0723,N,07702.8488,W,091711.00,A
$GPGLL,3854.0688,N,07702.8341,W,091713.00,A
$GPGLL,3854.0652,N,07702.82048,W,091715.00,A
$GPGLL,3854.0581,N,07702.80914,W,091717.00,A
$GPGLL,3854.0536,N,07702.79216,W,091719.00,A
$GPGLL,3854.0491,N,07702.77968,W,091721.00,A
$GPGLL,3854.0438,N,07702.76378,W,091723.00,A
$GPGLL,3854.0385,N,07702.7468,W,091725.00,A
$GPGSA,A,3,04,05,,09,12,,20,24,,,,,4.5,2.4,3.9*30
$GPGSV,2,1,08,04,46,050,41,05,72,324,45,06,12,266,00,09,41,215,45*7C
$GPGSV,2,2,08,12,24,164,38,16,10,150,00,20,28,311,45,24,78,103,45*7E
$GPGLL,3854.0349,N,07702.73318,W,091727.00,A
$GPGLL,3854.0295,N,07702.71848,W,091729.00,A
$GPGLL,3854.026,N,07702.70942,W,091731.00,A
$GPGLL,3854.0233,N,07702.69922,W,091733.00,A
$GPGLL,3854.0197,N,07702.69016,W,091735.00,A
$GPGLL,3854.0099,N,07702.6697,W,091737.00,A
$GPGLL,3854.0091,N,07702.66064,W,091739.00,A
$GPGLL,3854.0055,N,07702.64936,W,091741.00,A
$GPGLL,3853.9992,N,07702.6391,W,091743.00,A
$GPGLL,3853.9983,N,07702.62896,W,091745.00,A
$GPGSA,A,3,04,05,,09,12,,20,24,,,,,2.5,1.3,2.1*3B
$GPGSV,2,1,08,04,46,050,45,05,72,324,46,06,12,266,00,09,41,215,47*79
$GPGSV,2,2,08,12,24,164,41,16,11,150,43,20,29,311,47,24,77,098,43*7F
$GPGLL,3853.9939,N,07702.61762,W,091747.00,A
$GPGLL,3853.9912,N,07702.604,W,091749.00,A
$GPGLL,3853.9858,N,07702.59494,W,091751.00,A
$GPGLL,3853.9814,N,07702.58132,W,091753.00,A
$GPGLL,3853.9752,N,07702.5677,W,091755.00,A
$GPGLL,3853.9734,N,07702.553,W,091757.00,A
$GPGLL,3853.9689,N,07702.53938,W,091759.00,A
$GPGLL,3853.9618,N,07702.52468,W,091801.00,A
$GPGLL,3853.9564,N,07702.50878,W,091803.00,A
$GPGLL,3853.9529,N,07702.4963,W,091805.00,A
$GPGSA,A,3,04,05,06,09,12,,20,24,,,,,2.2,1.2,1.8*31
$GPGSV,2,1,08,04,45,050,43,05,73,324,43,06,13,267,41,09,40,214,45*7F
$GPGSV,2,2,08,12,23,164,42,16,11,150,40,20,29,311,45,24,77,098,46*7F
$GPGLL,3853.9458,N,07702.4816,W,091807.00,A
$GPGLL,3853.9413,N,07702.47362,W,091809.00,A
$GPGLL,3853.9368,N,07702.4657,W,091811.00,A
$GPGLL,3853.9386,N,07702.46342,W,091813.00,A
$GPGLL,3853.9351,N,07702.45664,W,091815.00,A
$GPGLL,3853.9306,N,07702.44872,W,091817.00,A
$GPGLL,3853.9288,N,07702.44074,W,091819.00,A
$GPGLL,3853.9235,N,07702.43168,W,091821.00,A
$GPGLL,3853.9226,N,07702.42376,W,091823.00,A
$GPGLL,3853.9181,N,07702.41584,W,091825.00,A
$GPGSA,A,3,04,05,,09,12,16,20,24,,,,,2.1,1.2,1.7*3C
$GPGSV,2,1,08,04,45,050,46,05,73,324,44,06,13,267,00,09,40,214,46*7B
$GPGSV,2,2,08,12,23,164,46,16,12,149,43,20,29,311,45,24,77,094,44*7D
$GPGLL,3853.9164,N,07702.409,W,091827.00,A
$GPGLL,3853.9128,N,07702.40336,W,091829.00,A
$GPGLL,3853.9119,N,07702.39544,W,091831.00,A
$GPGLL,3853.9083,N,07702.38974,W,091833.00,A
$GPGLL,3853.9057,N,07702.38182,W,091835.00,A
$GPGLL,3853.9039,N,07702.37276,W,091837.00,A
$GPGLL,3853.9012,N,07702.36484,W,091839.00,A
$GPGLL,3853.903,N,07702.35464,W,091841.00,A
$GPGLL,3853.9021,N,07702.3433,W,091843.00,A
$GPGLL,3853.9021,N,07702.3343,W,091845.00,A
$GPGSA,A,3,04,05,,09,12,,,24,,,,,2.5,1.3,2.1*39
$GPGSV,2,1,08,04,48,051,46,05,70,324,45,06,11,265,32,09,43,217,48*7A
$GPGSV,2,2,08,12,26,163,45,16,10,151,00,20,26,311,38,24,77,113,44*7B
$GPGLL,3853.9021,N,07702.32746,W,091847.00,A
$GPGLL,3853.9021,N,07702.32068,W,091849.00,A
$GPGLL,3853.902,N,07702.30712,W,091851.00,A
$GPGLL,3853.902,N,07702.29806,W,091853.00,A
$GPGLL,3853.902,N,07702.28558,W,091855.00,A
$GPGLL,3853.902,N,07702.27316,W,091857.00,A
$GPGLL,3853.902,N,07702.26524,W,091859.00,A
$GPGLL,3853.902,N,07702.25846,W,091901.00,A
$GPGLL,3853.9011,N,07702.24034,W,091903.00,A
$GPGLL,3853.902,N,07702.23128,W,091905.00,A
$GPGSA,A,3,04,05,,09,12,,20,24,,,,,4.5,2.4,3.9*30
$GPGSV,2,1,08,04,46,050,41,05,72,324,45,06,12,266,00,09,41,215,45*7C
$GPGSV,2,2,08,12,24,164,38,16,10,150,00,20,28,311,45,24,78,103,45*7E
$GPGLL,3853.9011,N,07702.21772,W,091907.00,A
$GPGLL,3853.902,N,07702.20638,W,091909.00,A
$GPGLL,3853.902,N,07702.2041,W,091911.00,A
$GPGLL,3853.9002,N,07702.1939,W,091913.00,A
$GPGLL,3853.9011,N,07702.17698,W,091915.00,A
$GPGLL,3853.902,N,07702.16792,W,091917.00,A
$GPGLL,3853.9011,N,07702.15886,W,091919.00,A
$GPGLL,3853.902,N,07702.15094,W,091921.00,A
$GPGLL,3853.9019,N,07702.1351,W,091923.00,A
$GPGLL,3853.9019,N,07702.1351,W,091925.00,A
$GPGSA,A,3,04,05,,09,12,,20,24,,,,,2.5,1.3,2.1*3B
$GPGSV,2,1,08,04,46,050,45,05,72,324,46,06,12,266,00,09,41,215,47*79
$GPGSV,2,2,08,12,24,164,41,16,11,150,43,20,29,311,47,24,77,098,43*7F
$GPGLL,3853.9019,N,07702.1351,W,091927.00,A
$GPGLL,3853.9019,N,07702.13396,W,091929.00,A
$GPGLL,3853.9028,N,07702.12832,W,091931.00,A
$GPGLL,3853.9028,N,07702.1204,W,091933.00,A
$GPGLL,3853.9028,N,07702.11134,W,091935.00,A
$GPGLL,3853.9028,N,07702.10228,W,091937.00,A
$GPGLL,3853.9028,N,07702.0955,W,091939.00,A
$GPGLL,3853.9037,N,07702.08644,W,091941.00,A
$GPGLL,3853.9028,N,07702.07396,W,091943.00,A
$GPGLL,3853.9019,N,07702.05584,W,091945.00,A
$GPGSA,A,3,04,05,06,09,12,,20,24,,,,,2.2,1.2,1.8*31
$GPGSV,2,1,08,04,45,050,43,05,73,324,43,06,13,267,41,09,40,214,45*7F
$GPGSV,2,2,08,12,23,164,42,16,11,150,40,20,29,311,45,24,77,098,46*7F
$GPGLL,3853.9027,N,07702.04678,W,091947.00,A
$GPGLL,3853.9018,N,07702.02302,W,091949.00,A
$GPGLL,3853.8903,N,07702.0241,W,091951.00,A
$GPGLL,3853.8841,N,07702.02524,W,091953.00,A
$GPGLL,3853.8778,N,07702.02404,W,091955.00,A
$GPGLL,3853.8707,N,07702.02518,W,091957.00,A
$GPGLL,3853.8645,N,07702.02404,W,091959.00,A
$GPGLL,3853.8592,N,07702.02398,W,092001.00,A
$GPGLL,3853.8538,N,07702.02398,W,092003.00,A
$GPGLL,3853.8485,N,07702.0217,W,092005.00,A
$GPGSA,A,3,04,05,,09,12,16,20,24,,,,,2.1,1.2,1.7*3C
$GPGSV,2,1,08,04,45,050,46,05,73,324,44,06,13,267,00,09,40,214,46*7B
$GPGSV,2,2,08,12,23,164,46,16,12,149,43,20,29,311,45,24,77,094,44*7D
$GPGLL,3853.8351,N,07702.02164,W,092007.00,A
$GPGLL,3853.8316,N,07702.02272,W,092009.00,A
$GPGLL,3853.8227,N,07702.02272,W,092011.00,A
$GPGLL,3853.8129,N,07702.02266,W,092013.00,A
$GPGLL,3853.8049,N,07702.02374,W,092015.00,A
$GPGLL,3853.7951,N,07702.02488,W,092017.00,A
$GPGLL,3853.7889,N,07702.02482,W,092019.00,A
$GPGLL,3853.7844,N,07702.02368,W,092021.00,A
$GPGLL,3853.7809,N,07702.02254,W,092023.00,A
$GPGLL,3853.7711,N,07702.02134,W,092025.00,A
$GPGSA,A,3,04,05,,09,12,,,24,,,,,2.5,1.3,2.1*39
$GPGSV,2,1,08,04,48,051,46,05,70,324,45,06,11,265,32,09,43,217,48*7A
$GPGSV,2,2,08,12,26,163,45,16,10,151,00,20,26,311,38,24,77,113,44*7B
$GPGLL,3853.7658,N,07702.02248,W,092027.00,A
$GPGLL,3853.7649,N,07702.0157,W,092029.00,A
$GPGLL,3853.764,N,07702.01,W,092031.00,A
$GPGLL,3853.7622,N,07701.9998,W,092033.00,A
$GPGLL,3853.7604,N,07701.99074,W,092035.00,A
$GPGLL,3853.7559,N,07701.97826,W,092037.00,A
$GPGLL,3853.7524,N,07701.9647,W,092039.00,A
$GPGLL,3853.7479,N,07701.95108,W,092041.00,A
$GPGLL,3853.7434,N,07701.93974,W,092043.00,A
$GPGLL,3853.7425,N,07701.92618,W,092045.00,A
$GPGSA,A,3,04,05,,09,12,,20,24,,,,,4.5,2.4,3.9*30
$GPGSV,2,1,08,04,46,050,41,05,72,324,45,06,12,266,00,09,41,215,45*7C
$GPGSV,2,2,08,12,24,164,38,16,10,150,00,20,28,311,45,24,78,103,45*7E
$GPGLL,3853.7372,N,07701.91484,W,092047.00,A
$GPGLL,3853.7363,N,07701.90014,W,092049.00,A
$GPGLL,3853.7292,N,07701.88538,W,092051.00,A
$GPGLL,3853.7247,N,07701.87404,W,092053.00,A
$GPGLL,3853.722,N,07701.85706,W,092055.00,A
$GPGLL,3853.7185,N,07701.8423,W,092057.00,A
$GPGLL,3853.7167,N,07701.83438,W,092059.00,A
$GPGLL,3853.7113,N,07701.8219,W,092101.00,A
$GPGLL,3853.7086,N,07701.81398,W,092103.00,A
$GPGLL,3853.7024,N,07701.79922,W,092105.00,A
$GPGSA,A,3,04,05,,09,12,,20,24,,,,,2.5,1.3,2.1*3B
$GPGSV,2,1,08,04,46,050,45,05,72,324,46,06,12,266,00,09,41,215,47*79
$GPGSV,2,2,08,12,24,164,41,16,11,150,43,20,29,311,47,24,77,098,43*7F
$GPGLL,3853.7015,N,07701.78338,W,092107.00,A
$GPGLL,3853.6953,N,07701.76982,W,092109.00,A
$GPGLL,3853.6953,N,07701.75734,W,092111.00,A
$GPGLL,3853.6899,N,07701.74036,W,092113.00,A
$GPGLL,3853.6837,N,07701.72674,W,092115.00,A
$GPGLL,3853.6774,N,07701.71198,W,092117.00,A
$GPGLL,3853.6765,N,07701.69728,W,092119.00,A
$GPGLL,3853.6739,N,07701.69164,W,092121.00,A
$GPGLL,3853.6712,N,07701.67238,W,092123.00,A
$GPGLL,3853.6668,N,07701.6599,W,092125.00,A
$GPGSA,A,3,04,05,06,09,12,,20,24,,,,,2.2,1.2,1.8*31
$GPGSV,2,1,08,04,45,050,43,05,73,324,43,06,13,267,41,09,40,214,45*7F
$GPGSV,2,2,08,12,23,164,42,16,11,150,40,20,29,311,45,24,77,098,46*7F
$GPGLL,3853.6641,N,07701.64742,W,092127.00,A
$GPGLL,3853.6569,N,07701.6293,W,092129.00,A
$GPGLL,3853.6534,N,07701.61454,W,092131.00,A
$GPGLL,3853.6498,N,07701.59534,W,092133.00,A
$GPGLL,3853.6444,N,07701.5783,W,092135.00,A
$GPGLL,3853.6382,N,07701.56696,W,092137.00,A
$GPGLL,3853.6364,N,07701.54884,W,092139.00,A
$GPGLL,3853.632,N,07701.53528,W,092141.00,A
$GPGLL,3853.6266,N,07701.51488,W,092143.00,A
$GPGLL,3853.6222,N,07701.49448,W,092145.00,A
$GPGSA,A,3,04,05,,09,12,16,20,24,,,,,2.1,1.2,1.7*3C
$GPGSV,2,1,08,04,45,050,46,05,73,324,44,06,13,267,00,09,40,214,46*7B
$GPGSV,2,2,08,12,23,164,46,16,12,149,43,20,29,311,45,24,77,094,44*7D
$GPGLL,3853.6159,N,07701.48314,W,092147.00,A
$GPGLL,3853.6159,N,07701.4718,W,092149.00,A
$GPGLL,3853.607,N,07701.44912,W,092151.00,A
$GPGLL,3853.6043,N,07701.43778,W,092153.00,A
$GPGLL,3853.6008,N,07701.42194,W,092155.00,A
$GPGLL,3853.5954,N,07701.40382,W,092157.00,A
$GPGLL,3853.5892,N,07701.38906,W,092159.00,A
$GPGLL,3853.5865,N,07701.37322,W,092201.00,A
$GPGLL,3853.5811,N,07701.35396,W,092203.00,A
$GPGLL,3853.5758,N,07701.34034,W,092205.00,A
$GPGSA,A,3,04,05,,09,12,,,24,,,,,2.5,1.3,2.1*39
$GPGSV,2,1,08,04,48,051,46,05,70,324,45,06,11,265,32,09,43,217,48*7A
$GPGSV,2,2,08,12,26,163,45,16,10,151,00,20,26,311,38,24,77,113,44*7B
$GPGLL,3853.574,N,07701.33584,W,092207.00,A
$GPGLL,3853.5705,N,07701.31886,W,092209.00,A
$GPGLL,3853.5669,N,07701.30866,W,092211.00,A
$GPGLL,3853.5633,N,07701.29846,W,092213.00,A
$GPGLL,3853.5597,N,07701.28142,W,092215.00,A
$GPGLL,3853.5571,N,07701.26786,W,092217.00,A
$GPGLL,3853.5553,N,07701.25766,W,092219.00,A
$GPGLL,3853.549,N,07701.24404,W,092221.00,A
$GPGLL,3853.5463,N,07701.22934,W,092223.00,A
$GPGLL,3853.541,N,07701.21914,W,092225.00,A
$GPGSA,A,3,04,05,,09,12,,20,24,,,,,4.5,2.4,3.9*30
$GPGSV,2,1,08,04,46,050,41,05,72,324,45,06,12,266,00,09,41,215,45*7C
$GPGSV,2,2,08,12,24,164,38,16,10,150,00,20,28,311,45,24,78,103,45*7E
$GPGLL,3853.5401,N,07701.20894,W,092227.00,A
$GPGLL,3853.5392,N,07701.1976,W,092229.00,A
$GPGLL,3853.533,N,07701.18854,W,092231.00,A
$GPGLL,3853.5294,N,07701.17264,W,092233.00,A
$GPGLL,3853.5267,N,07701.16022,W,092235.00,A
$GPGLL,3853.5258,N,07701.14774,W,092237.00,A
$GPGLL,3853.5241,N,07701.13868,W,092239.00,A
$GPGLL,3853.5214,N,07701.1319,W,092241.00,A
$GPGLL,3853.516,N,07701.12284,W,092243.00,A
$GPGLL,3853.5142,N,07701.11378,W,092245.00,A
$GPGSA,A,3,04,05,,09,12,,20,24,,,,,2.5,1.3,2.1*3B
$GPGSV,2,1,08,04,46,050,45,05,72,324,46,06,12,266,00,09,41,215,47*79
$GPGSV,2,2,08,12,24,164,41,16,11,150,43,20,29,311,47,24,77,098,43*7F
$GPGLL,3853.5107,N,07701.1058,W,092247.00,A
$GPGLL,3853.5072,N,07701.09332,W,092249.00,A
$GPGLL,3853.5036,N,07701.06956,W,092251.00,A
$GPGLL,3853.5018,N,07701.06392,W,092253.00,A
$GPGLL,3853.5009,N,07701.056,W,092255.00,A
$GPGLL,3853.4973,N,07701.04352,W,092257.00,A
$GPGLL,3853.4937,N,07701.03332,W,092259.00,A
$GPGLL,3853.492,N,07701.0254,W,092301.00,A
$GPGLL,3853.4902,N,07701.0197,W,092303.00,A
$GPGLL,3853.483,N,07701.00722,W,092305.00,A
$GPGSA,A,3,04,05,06,09,12,,20,24,,,,,2.2,1.2,1.8*31
$GPGSV,2,1,08,04,45,050,43,05,73,324,43,06,13,267,41,09,40,214,45*7F
$GPGSV,2,2,08,12,23,164,42,16,11,150,40,20,29,311,45,24,77,098,46*7F
$GPGLL,3853.483,N,07700.99702,W,092307.00,A
$GPGLL,3853.4821,N,07700.9891,W,092309.00,A
$GPGLL,3853.4759,N,07700.97554,W,092311.00,A
$GPGLL,3853.475,N,07700.9642,W,092313.00,A
$GPGLL,3853.4688,N,07700.94722,W,092315.00,A
$GPGLL,3853.4652,N,07700.93588,W,092317.00,A
$GPGLL,3853.4634,N,07700.92454,W,092319.00,A
$GPGLL,3853.4608,N,07700.91662,W,092321.00,A
$GPGLL,3853.4412,N,07700.91878,W,092323.00,A
$GPGLL,3853.4278,N,07700.91986,W,092325.00,A
$GPGSA,A,3,04,05,,09,12,16,20,24,,,,,2.1,1.2,1.7*3C
$GPGSV,2,1,08,04,45,050,46,05,73,324,44,06,13,267,00,09,40,214,46*7B
$GPGSV,2,2,08,12,23,164,46,16,12,149,43,20,29,311,45,24,77,094,44*7D
$GPGLL,3853.4172,N,07700.92094,W,092327.00,A
$GPGLL,3853.4074,N,07700.92202,W,092329.00,A
$GPGLL,3853.3941,N,07700.92196,W,092331.00,A
$GPGLL,3853.3834,N,07700.92196,W,092333.00,A
$GPGLL,3853.3665,N,07700.92184,W,092335.00,A
$GPGLL,3853.3558,N,07700.92184,W,092337.00,A
$GPGLL,3853.3425,N,07700.92292,W,092339.00,A
$GPGLL,3853.3309,N,07700.92172,W,092341.00,A
$GPGLL,3853.3131,N,07700.92166,W,092343.00,A
$GPGLL,3853.2997,N,07700.92046,W,092345.00,A
$GPGSA,A,3,04,05,,09,12,,,24,,,,,2.5,1.3,2.1*39
$GPGSV,2,1,08,04,48,051,46,05,70,324,45,06,11,265,32,09,43,217,48*7A
$GPGSV,2,2,08,12,26,163,45,16,10,151,00,20,26,311,38,24,77,113,44*7B
$GPGLL,3853.2855,N,07700.92268,W,092347.00,A
$GPGLL,3853.273,N,07700.92034,W,092349.00,A
$GPGLL,3853.2606,N,07700.92028,W,092351.00,A
$GPGLL,3853.2472,N,07700.92136,W,092353.00,A
$GPGLL,3853.2384,N,07700.92358,W,092355.00,A
$GPGLL,3853.2357,N,07700.91338,W,092357.00,A
$GPGLL,3853.2357,N,07700.90096,W,092359.00,A
$GPGLL,3853.2357,N,07700.88848,W,092401.00,A
$GPGLL,3853.2366,N,07700.87942,W,092403.00,A
$GPGLL,3853.2348,N,07700.867,W,092405.00,A
$GPGSA,A,3,04,05,,09,12,,20,24,,,,,4.5,2.4,3.9*30
$GPGSV,2,1,08,04,46,050,41,05,72,324,45,06,12,266,00,09,41,215,45*7C
$GPGSV,2,2,08,12,24,164,38,16,10,150,00,20,28,311,45,24,78,103,45*7E
$GPGLL,3853.2348,N,07700.85002,W,092407.00,A
$GPGLL,3853.2348,N,07700.83754,W,092409.00,A
$GPGLL,3853.2347,N,07700.81834,W,092411.00,A
$GPGLL,3853.2356,N,07700.79794,W,092413.00,A
$GPGLL,3853.2356,N,07700.78096,W,092415.00,A
$GPGLL,3853.2347,N,07700.77082,W,092417.00,A
$GPGLL,3853.2347,N,07700.7572,W,092419.00,A
$GPGLL,3853.2346,N,07700.73686,W,092421.00,A
$GPGLL,3853.2346,N,07700.71196,W,092423.00,A
$GPGLL,3853.2346,N,07700.70404,W,092425.00,A
$GPGSA,A,3,04,05,,09,12,,20,24,,,,,2.5,1.3,2.1*3B
$GPGSV,2,1,08,04,46,050,45,05,72,324,46,06,12,266,00,09,41,215,47*79
$GPGSV,2,2,08,12,24,164,41,16,11,150,43,20,29,311,47,24,77,098,43*7F
$GPGLL,3853.2346,N,07700.68136,W,092427.00,A
$GPGLL,3853.2346,N,07700.65646,W,092429.00,A
$GPGLL,3853.2337,N,07700.6576,W,092431.00,A
$GPGLL,3853.2337,N,07700.64518,W,092433.00,A
$GPGLL,3853.2364,N,07700.618,W,092435.00,A
$GPGLL,3853.2381,N,07700.59994,W,092437.00,A
$GPGLL,3853.2381,N,07700.58518,W,092439.00,A
$GPGLL,3853.2372,N,07700.56484,W,092441.00,A
$GPGLL,3853.2372,N,07700.55236,W,092443.00,A
$GPGLL,3853.2372,N,07700.5433,W,092445.00,A
$GPGSA,A,3,04,05,06,09,12,,20,24,,,,,2.2,1.2,1.8*31
$GPGSV,2,1,08,04,45,050,43,05,73,324,43,06,13,267,41,09,40,214,45*7F
$GPGSV,2,2,08,12,23,164,42,16,11,150,40,20,29,311,45,24,77,098,46*7F
$GPGLL,3853.2363,N,07700.52974,W,092447.00,A
$GPGLL,3853.2363,N,07700.51048,W,092449.00,A
$GPGLL,3853.2363,N,07700.48222,W,092451.00,A
$GPGLL,3853.2372,N,07700.45846,W,092453.00,A
$GPGLL,3853.2372,N,07700.44034,W,092455.00,A
$GPGLL,3853.2389,N,07700.41994,W,092457.00,A
$GPGLL,3853.238,N,07700.40296,W,092459.00,A
$GPGLL,3853.238,N,07700.39054,W,092501.00,A
$GPGLL,3853.238,N,07700.37698,W,092503.00,A
$GPGLL,3853.2371,N,07700.36564,W,092505.00,A
$GPGSA,A,3,04,05,,09,12,16,20,24,,,,,2.1,1.2,1.7*3C
$GPGSV,2,1,08,04,45,050,46,05,73,324,44,06,13,267,00,09,40,214,46*7B
$GPGSV,2,2,08,12,23,164,46,16,12,149,43,20,29,311,45,24,77,094,44*7D
$GPGLL,3853.2362,N,07700.35094,W,092507.00,A
$GPGLL,3853.237,N,07700.3294,W,092509.00,A
$GPGLL,3853.2361,N,07700.31356,W,092511.00,A
$GPGLL,3853.237,N,07700.29544,W,092513.00,A
$GPGLL,3853.2361,N,07700.2796,W,092515.00,A
$GPGLL,3853.2361,N,07700.26376,W,092517.00,A
$GPGLL,3853.2379,N,07700.2547,W,092519.00,A
$GPGLL,3853.237,N,07700.23436,W,092521.00,A
$GPGLL,3853.2379,N,07700.2253,W,092523.00,A
$GPGLL,3853.2379,N,07700.21624,W,092525.00,A
$GPGSA,A,3,04,05,,09,12,,,24,,,,,2.5,1.3,2.1*39
$GPGSV,2,1,08,04,48,051,46,05,70,324,45,06,11,265,32,09,43,217,48*7A
$GPGSV,2,2,08,12,26,163,45,16,10,151,00,20,26,311,38,24,77,113,44*7B
$GPGLL,3853.2388,N,07700.20832,W,092527.00,A
$GPGLL,3853.237,N,07700.22188,W,092529.00,A
$GPGLL,3853.237,N,07700.21396,W,092531.00,A
$GPGLL,3853.237,N,07700.19584,W,092533.00,A
$GPGLL,3853.2361,N,07700.18114,W,092535.00,A
$GPGLL,3853.2361,N,07700.16872,W,092537.00,A
$GPGLL,3853.2361,N,07700.15738,W,092539.00,A
$GPGLL,3853.2361,N,07700.14496,W,092541.00,A
$GPGLL,3853.236,N,07700.12456,W,092543.00,A
$GPGLL,3853.236,N,07700.1053,W,092545.00,A
$GPGSA,A,3,04,05,,09,12,,20,24,,,,,4.5,2.4,3.9*30
$GPGSV,2,1,08,04,46,050,41,05,72,324,45,06,12,266,00,09,41,215,45*7C
$GPGSV,2,2,08,12,24,164,38,16,10,150,00,20,28,311,45,24,78,103,45*7E
$GPGLL,3853.2369,N,07700.0963,W,092547.00,A
$GPGLL,3853.2369,N,07700.08496,W,092549.00,A
$GPGLL,3853.2369,N,07700.07476,W,092551.00,A
